[{"chain": "lotte", "tid": "1|0001|1013", "name": "가산디지털", "name_en": "Gasan Digital", "area": "", "lat": 37.4775952, "lon": 126.8890717, "addr": "디지털로10길 9 (현대아울렛 가산)", "book": "https://www.lottecinema.co.kr/NLCHS/Cinema/Detail?cinemaID=1013"}, {"chain": "lotte", "tid": "1|0001|9094", "name": "가양", "name_en": "Gayang", "area": "", "lat": 37.5615798, "lon": 126.8532847, "addr": "", "book": "https://www.lottecinema.co.kr/NLCHS/Cinema/Detail?cinemaID=9094"}, {"chain": "lotte", "tid": "1|0001|9010", "name": "강동", "name_en": "Kangdong", "area": "", "lat": 37.5366275939741, "lon": 127.125337325468, "addr": "", "book": "https://www.lottecinema.co.kr/NLCHS/Cinema/Detail?cinemaID=9010"}, {"chain": "lotte", "tid": "1|0001|1004", "name": "건대입구", "name_en": "Konkuk Univ", "area": "", "lat": 37.538553, "lon": 127.073184, "addr": "아차산로 272 (스타시티)", "book": "https://www.lottecinema.co.kr/NLCHS/Cinema/Detail?cinemaID=1004"}, {"chain": "lotte", "tid": "1|0001|1009", "name": "김포공항", "name_en": "Gimpo Int'l Airport", "area": "", "lat": 37.563735, "lon": 126.803759, "addr": "롯데몰 김포공항", "book": "https://www.lottecinema.co.kr/NLCHS/Cinema/Detail?cinemaID=1009"}, {"chain": "lotte", "tid": "1|0001|1003", "name": "노원", "name_en": "Nowon", "area": "", "lat": 37.6551568707704, "lon": 127.061098089374, "addr": "롯데백화점 노원", "book": "https://www.lottecinema.co.kr/NLCHS/Cinema/Detail?cinemaID=1003"}, {"chain": "lotte", "tid": "1|0001|1023", "name": "도곡", "name_en": "Dogok", "area": "", "lat": 37.487453, "lon": 127.047102, "addr": "남부순환로 2753 (도곡동) B2층", "book": "https://www.lottecinema.co.kr/NLCHS/Cinema/Detail?cinemaID=1023"}, {"chain": "lotte", "tid": "1|0001|1017", "name": "독산", "name_en": "Doksan", "area": "", "lat": 37.4694106, "lon": 126.8974623, "addr": "금천구 시흥대로 399 (씨티렉스)", "book": "https://www.lottecinema.co.kr/NLCHS/Cinema/Detail?cinemaID=1017"}, {"chain": "lotte", "tid": "1|0001|1012", "name": "서울대입구", "name_en": "Seoul Nat'l Univ Station", "area": "", "lat": 37.4809309, "lon": 126.9520777, "addr": "남부순환로 1820 (에그옐로우)", "book": "https://www.lottecinema.co.kr/NLCHS/Cinema/Detail?cinemaID=1012"}, {"chain": "lotte", "tid": "1|0001|9099", "name": "수락산", "name_en": "Suraksan", "area": "", "lat": 37.6765617, "lon": 127.0556763, "addr": "", "book": "https://www.lottecinema.co.kr/NLCHS/Cinema/Detail?cinemaID=9099"}, {"chain": "lotte", "tid": "1|0001|9104", "name": "수유", "name_en": "Suyu", "area": "", "lat": 37.635805, "lon": 127.023751, "addr": "도봉로 308 (북한산 스카이)", "book": "https://www.lottecinema.co.kr/NLCHS/Cinema/Detail?cinemaID=9104"}, {"chain": "lotte", "tid": "1|0001|1024", "name": "신대방(구로디지털역)", "name_en": "Sindaebang", "area": "", "lat": 37.48649549, "lon": 126.9050261, "addr": "서울특별시 동작구 시흥대로 606 (협성휴포레)", "book": "https://www.lottecinema.co.kr/NLCHS/Cinema/Detail?cinemaID=1024"}, {"chain": "lotte", "tid": "1|0001|1015", "name": "신도림", "name_en": "Sindorim", "area": "", "lat": 37.5086097, "lon": 126.8889387, "addr": "현대백화점 디큐브시티", "book": "https://www.lottecinema.co.kr/NLCHS/Cinema/Detail?cinemaID=1015"}, {"chain": "lotte", "tid": "1|0001|1007", "name": "신림", "name_en": "Sillim", "area": "", "lat": 37.4837896406321, "lon": 126.930191619255, "addr": "타임스트림 (구. 포도몰)", "book": "https://www.lottecinema.co.kr/NLCHS/Cinema/Detail?cinemaID=1007"}, {"chain": "lotte", "tid": "1|0001|1001", "name": "에비뉴엘(명동)", "name_en": "Avenuel", "area": "", "lat": 37.564224, "lon": 126.981517, "addr": "롯데백화점 본점 에비뉴엘", "book": "https://www.lottecinema.co.kr/NLCHS/Cinema/Detail?cinemaID=1001"}, {"chain": "lotte", "tid": "1|0001|1002", "name": "영등포", "name_en": "Yeongdeungpo", "area": "", "lat": 37.515018, "lon": 126.908022, "addr": "롯데백화점 영등포 시네마동", "book": "https://www.lottecinema.co.kr/NLCHS/Cinema/Detail?cinemaID=1002"}, {"chain": "lotte", "tid": "1|0001|1014", "name": "용산", "name_en": "Yongsan", "area": "", "lat": 37.5328184, "lon": 126.959723, "addr": "청파로 74 (용산 전자랜드)", "book": "https://www.lottecinema.co.kr/NLCHS/Cinema/Detail?cinemaID=1014"}, {"chain": "lotte", "tid": "1|0001|1016", "name": "월드타워", "name_en": "WorldTower", "area": "", "lat": 37.514207, "lon": 127.105013, "addr": "잠실 롯데월드몰 엔터테인먼트동 5층", "book": "https://www.lottecinema.co.kr/NLCHS/Cinema/Detail?cinemaID=1016"}, {"chain": "lotte", "tid": "1|0001|1021", "name": "은평(롯데몰)", "name_en": "Eunpyeong", "area": "", "lat": 37.637596, "lon": 126.917525, "addr": "롯데몰 은평", "book": "https://www.lottecinema.co.kr/NLCHS/Cinema/Detail?cinemaID=1021"}, {"chain": "lotte", "tid": "1|0001|9083", "name": "중랑", "name_en": "jungnang", "area": "", "lat": 37.615085, "lon": 127.075962, "addr": "", "book": "https://www.lottecinema.co.kr/NLCHS/Cinema/Detail?cinemaID=9083"}, {"chain": "lotte", "tid": "1|0001|1008", "name": "청량리", "name_en": "Cheongnyangni", "area": "", "lat": 37.58094758604442, "lon": 127.04695545902146, "addr": "롯데백화점 청량리", "book": "https://www.lottecinema.co.kr/NLCHS/Cinema/Detail?cinemaID=1008"}, {"chain": "lotte", "tid": "1|0001|1010", "name": "합정", "name_en": "Hapjeong", "area": "", "lat": 37.5504586, "lon": 126.9134333, "addr": "마포구 양화로 45 (메세나폴리스)", "book": "https://www.lottecinema.co.kr/NLCHS/Cinema/Detail?cinemaID=1010"}, {"chain": "lotte", "tid": "1|0001|1005", "name": "홍대입구", "name_en": "Hongik Univ", "area": "", "lat": 37.5573726898702, "lon": 126.92530027683, "addr": "마포구 양화로 176 (와이즈파크)", "book": "https://www.lottecinema.co.kr/NLCHS/Cinema/Detail?cinemaID=1005"}, {"chain": "lotte", "tid": "1|0002|3030", "name": "광교", "name_en": "Gwanggyo", "area": "", "lat": 37.2861928, "lon": 127.0559172, "addr": "롯데아울렛 광교", "book": "https://www.lottecinema.co.kr/NLCHS/Cinema/Detail?cinemaID=3030"}, {"chain": "lotte", "tid": "1|0002|3027", "name": "광명(광명사거리)", "name_en": "Gwangmyeong", "area": "", "lat": 37.4794548, "lon": 126.8556578, "addr": "오리로 970 (크로앙스)", "book": "https://www.lottecinema.co.kr/NLCHS/Cinema/Detail?cinemaID=3027"}, {"chain": "lotte", "tid": "1|0002|3025", "name": "광명아울렛", "name_en": "Gwangmyeong Outlet", "area": "", "lat": 37.4237587, "lon": 126.8841253, "addr": "롯데아울렛 광명", "book": "https://www.lottecinema.co.kr/NLCHS/Cinema/Detail?cinemaID=3025"}, {"chain": "lotte", "tid": "1|0002|3026", "name": "구리아울렛", "name_en": "Guri Outlet", "area": "", "lat": 37.6119381, "lon": 127.1405743, "addr": "롯데아울렛 구리", "book": "https://www.lottecinema.co.kr/NLCHS/Cinema/Detail?cinemaID=3026"}, {"chain": "lotte", "tid": "1|0002|3048", "name": "동탄", "name_en": "Dongtan", "area": "", "lat": 37.20031, "lon": 127.097562, "addr": "롯데백화점 동탄", "book": "https://www.lottecinema.co.kr/NLCHS/Cinema/Detail?cinemaID=3048"}, {"chain": "lotte", "tid": "1|0002|9095", "name": "라페스타", "name_en": "La Festa", "area": "", "lat": 37.6615803226554, "lon": 126.768589994622, "addr": "", "book": "https://www.lottecinema.co.kr/NLCHS/Cinema/Detail?cinemaID=9095"}, {"chain": "lotte", "tid": "1|0002|3021", "name": "마석", "name_en": "Maseok", "area": "", "lat": 37.6503518, "lon": 127.3094478, "addr": "", "book": "https://www.lottecinema.co.kr/NLCHS/Cinema/Detail?cinemaID=3021"}, {"chain": "lotte", "tid": "1|0002|3046", "name": "별내", "name_en": "Byulnae", "area": "", "lat": 37.644759, "lon": 127.127372, "addr": "별내중앙로 10 (아이플레이스)", "book": "https://www.lottecinema.co.kr/NLCHS/Cinema/Detail?cinemaID=3046"}, {"chain": "lotte", "tid": "1|0002|3017", "name": "병점", "name_en": "Byeongjeom", "area": "", "lat": 37.213821786633, "lon": 127.042588463244, "addr": "효행로 1052 (씨네샤르망 A동)", "book": "https://www.lottecinema.co.kr/NLCHS/Cinema/Detail?cinemaID=3017"}, {"chain": "lotte", "tid": "1|0002|3011", "name": "부천(신중동역)", "name_en": "Bucheon", "area": "", "lat": 37.50283947633091, "lon": 126.77318701410574, "addr": "길주로 280 (중동)", "book": "https://www.lottecinema.co.kr/NLCHS/Cinema/Detail?cinemaID=3011"}, {"chain": "lotte", "tid": "1|0002|3003", "name": "부평", "name_en": "Bupyeong", "area": "", "lat": 37.4934380680407, "lon": 126.726473496689, "addr": "대정로 66 (다운타운일레븐)", "book": "https://www.lottecinema.co.kr/NLCHS/Cinema/Detail?cinemaID=3003"}, {"chain": "lotte", "tid": "1|0002|3050", "name": "부평갈산", "name_en": "Bupyeong Galsan", "area": "", "lat": 37.5151898, "lon": 126.7271571, "addr": "부평구 주부토로 236 (인천 테크노벨리U1센터)", "book": "https://www.lottecinema.co.kr/NLCHS/Cinema/Detail?cinemaID=3050"}, {"chain": "lotte", "tid": "1|0002|3008", "name": "부평역사", "name_en": "Bupyeong Sation", "area": "", "lat": 37.48975484739911, "lon": 126.7233303921519, "addr": "광장로 16 부평민자역사 7층", "book": "https://www.lottecinema.co.kr/NLCHS/Cinema/Detail?cinemaID=3008"}, {"chain": "lotte", "tid": "1|0002|9130", "name": "북수원(천천동)", "name_en": "Buksuwon", "area": "", "lat": 37.300579, "lon": 126.983756, "addr": "장안구 천천로 100", "book": "https://www.lottecinema.co.kr/NLCHS/Cinema/Detail?cinemaID=9130"}, {"chain": "lotte", "tid": "1|0002|3031", "name": "산본피트인", "name_en": "Sanbon Fitin", "area": "", "lat": 37.3578659, "lon": 126.9306507, "addr": "번영로 485 (롯데피트인 산본)", "book": "https://www.lottecinema.co.kr/NLCHS/Cinema/Detail?cinemaID=3031"}, {"chain": "lotte", "tid": "1|0002|3043", "name": "서수원", "name_en": "Seosuwon", "area": "", "lat": 37.274956, "lon": 126.954133, "addr": "권선구 금곡로 219 (리더스 빌딩)", "book": "https://www.lottecinema.co.kr/NLCHS/Cinema/Detail?cinemaID=3043"}, {"chain": "lotte", "tid": "1|0002|3041", "name": "성남중앙(신흥역)", "name_en": "Seongnam Jungang", "area": "", "lat": 37.441267, "lon": 127.146448, "addr": "수정구 신흥동 4124", "book": "https://www.lottecinema.co.kr/NLCHS/Cinema/Detail?cinemaID=3041"}, {"chain": "lotte", "tid": "1|0002|3012", "name": "센트럴락", "name_en": "CentralLock Ansan", "area": "", "lat": 37.3185784318056, "lon": 126.838041732849, "addr": "고잔로 108 (조이월드)", "book": "https://www.lottecinema.co.kr/NLCHS/Cinema/Detail?cinemaID=3012"}, {"chain": "lotte", "tid": "1|0002|3029", "name": "송탄", "name_en": "Songtan", "area": "", "lat": 37.0672306293036, "lon": 127.060783511885, "addr": "평택시 관광특구로 19 (서정동)", "book": "https://www.lottecinema.co.kr/NLCHS/Cinema/Detail?cinemaID=3029"}, {"chain": "lotte", "tid": "1|0002|3024", "name": "수원(수원역)", "name_en": "Suwon", "area": "", "lat": 37.26403, "lon": 126.99696, "addr": "롯데몰 수원", "book": "https://www.lottecinema.co.kr/NLCHS/Cinema/Detail?cinemaID=3024"}, {"chain": "lotte", "tid": "1|0002|3044", "name": "수지", "name_en": "Suji", "area": "", "lat": 37.313134, "lon": 127.081204, "addr": "롯데몰 수지", "book": "https://www.lottecinema.co.kr/NLCHS/Cinema/Detail?cinemaID=3044"}, {"chain": "lotte", "tid": "1|0002|9088", "name": "시화(정왕역)", "name_en": "Sihwa", "area": "", "lat": 37.351296, "lon": 126.741786, "addr": "", "book": "https://www.lottecinema.co.kr/NLCHS/Cinema/Detail?cinemaID=9088"}, {"chain": "lotte", "tid": "1|0002|3049", "name": "시흥장현", "name_en": "Siheung Janghyun", "area": "", "lat": 37.370664, "lon": 126.807108, "addr": "장현능곡로 155 (시흥 플랑드르)", "book": "https://www.lottecinema.co.kr/NLCHS/Cinema/Detail?cinemaID=3049"}, {"chain": "lotte", "tid": "1|0002|3004", "name": "안산", "name_en": "Ansan", "area": "", "lat": 37.317938, "lon": 126.846194, "addr": "롯데마트 안산", "book": "https://www.lottecinema.co.kr/NLCHS/Cinema/Detail?cinemaID=3004"}, {"chain": "lotte", "tid": "1|0002|3028", "name": "안산고잔", "name_en": "Ansan Gojan", "area": "", "lat": 37.3087814, "lon": 126.8289266, "addr": "단원구 광덕대로 141 (밀레니엄빌딩)", "book": "https://www.lottecinema.co.kr/NLCHS/Cinema/Detail?cinemaID=3028"}, {"chain": "lotte", "tid": "1|0002|9106", "name": "안성", "name_en": "anseong", "area": "", "lat": 37.007508, "lon": 127.199492, "addr": "", "book": "https://www.lottecinema.co.kr/NLCHS/Cinema/Detail?cinemaID=9106"}, {"chain": "lotte", "tid": "1|0002|3032", "name": "안양일번가", "name_en": "Anyang 1st street", "area": "", "lat": 37.3995917, "lon": 126.9202022, "addr": "안양로 311 (프로젝트500 타워)", "book": "https://www.lottecinema.co.kr/NLCHS/Cinema/Detail?cinemaID=3032"}, {"chain": "lotte", "tid": "1|0002|3039", "name": "용인기흥", "name_en": "Yongin Giheung", "area": "", "lat": 37.274688, "lon": 127.116523, "addr": "기흥역로 63 (AK& 기흥)", "book": "https://www.lottecinema.co.kr/NLCHS/Cinema/Detail?cinemaID=3039"}, {"chain": "lotte", "tid": "1|0002|3040", "name": "용인역북", "name_en": "Yongin Yeokbuk", "area": "", "lat": 37.235786, "lon": 127.188564, "addr": "처인구 중부대로 1294", "book": "https://www.lottecinema.co.kr/NLCHS/Cinema/Detail?cinemaID=3040"}, {"chain": "lotte", "tid": "1|0002|3037", "name": "위례", "name_en": "Wirye", "area": "", "lat": 37.473588, "lon": 127.140443, "addr": "위례광장로 104(위례 한화 오벨리스크)", "book": "https://www.lottecinema.co.kr/NLCHS/Cinema/Detail?cinemaID=3037"}, {"chain": "lotte", "tid": "1|0002|3033", "name": "의정부민락", "name_en": "Uijeongbu Minrak", "area": "", "lat": 37.744266, "lon": 127.096336, "addr": "의정부시 천보로44 (해동타워)", "book": "https://www.lottecinema.co.kr/NLCHS/Cinema/Detail?cinemaID=3033"}, {"chain": "lotte", "tid": "1|0002|9100", "name": "인덕원", "name_en": "Indeogwon", "area": "", "lat": 37.4003338, "lon": 126.9761465, "addr": "", "book": "https://www.lottecinema.co.kr/NLCHS/Cinema/Detail?cinemaID=9100"}, {"chain": "lotte", "tid": "1|0002|3035", "name": "인천아시아드", "name_en": "Incheon Asiad", "area": "", "lat": 37.546457, "lon": 126.667612, "addr": "봉수대로 806 (인천아시아드 주경기장)", "book": "https://www.lottecinema.co.kr/NLCHS/Cinema/Detail?cinemaID=3035"}, {"chain": "lotte", "tid": "1|0002|3038", "name": "인천터미널", "name_en": "Incheon Terminal", "area": "", "lat": 37.442024, "lon": 126.701996, "addr": "롯데백화점 인천", "book": "https://www.lottecinema.co.kr/NLCHS/Cinema/Detail?cinemaID=3038"}, {"chain": "lotte", "tid": "1|0002|3010", "name": "진접", "name_en": "Jinjeop", "area": "", "lat": 37.7119934, "lon": 127.1866307, "addr": "해밀예당1로 36 (레일스타)", "book": "https://www.lottecinema.co.kr/NLCHS/Cinema/Detail?cinemaID=3010"}, {"chain": "lotte", "tid": "1|0002|9113", "name": "파주롯데아울렛", "name_en": "PajuOutlet", "area": "", "lat": 37.718156, "lon": 126.693056, "addr": "", "book": "https://www.lottecinema.co.kr/NLCHS/Cinema/Detail?cinemaID=9113"}, {"chain": "lotte", "tid": "1|0002|9126", "name": "파주야당", "name_en": "Pajuyadang", "area": "", "lat": 37.713176789042635, "lon": 126.7601036939909, "addr": "경기도파주시 경의로1074(야당동)", "book": "https://www.lottecinema.co.kr/NLCHS/Cinema/Detail?cinemaID=9126"}, {"chain": "lotte", "tid": "1|0002|3034", "name": "파주운정", "name_en": "Paju Unjeong", "area": "", "lat": 37.729805, "lon": 126.736762, "addr": "홈플러스 파주운정", "book": "https://www.lottecinema.co.kr/NLCHS/Cinema/Detail?cinemaID=3034"}, {"chain": "lotte", "tid": "1|0002|3047", "name": "판교(창조경제밸리)", "name_en": "Pangyo", "area": "", "lat": 37.413246, "lon": 127.098762, "addr": "수정구 창업로 18 (파미어스몰)", "book": "https://www.lottecinema.co.kr/NLCHS/Cinema/Detail?cinemaID=3047"}, {"chain": "lotte", "tid": "1|0002|3018", "name": "평촌(범계역)", "name_en": "Pyeongchon", "area": "", "lat": 37.3902172, "lon": 126.9504391, "addr": "롯데백화점 평촌", "book": "https://www.lottecinema.co.kr/NLCHS/Cinema/Detail?cinemaID=3018"}, {"chain": "lotte", "tid": "1|0002|9129", "name": "하남미사", "name_en": "Hanammisa", "area": "", "lat": 37.558896, "lon": 127.20394, "addr": "경기 하남시 미사대로 520", "book": "https://www.lottecinema.co.kr/NLCHS/Cinema/Detail?cinemaID=9129"}, {"chain": "lotte", "tid": "1|0002|3036", "name": "향남", "name_en": "Hyangnam", "area": "", "lat": 37.115374, "lon": 126.912246, "addr": "상신하길로 298번길 7-21 (하길리)", "book": "https://www.lottecinema.co.kr/NLCHS/Cinema/Detail?cinemaID=3036"}, {"chain": "lotte", "tid": "1|0003|9085", "name": "당진", "name_en": "dangjin", "area": "", "lat": 36.8869932, "lon": 126.6466231, "addr": "", "book": "https://www.lottecinema.co.kr/NLCHS/Cinema/Detail?cinemaID=9085"}, {"chain": "lotte", "tid": "1|0003|9128", "name": "아산터미널", "name_en": "Asan Terminal", "area": "", "lat": 36.7847997, "lon": 127.0160383, "addr": "아산시외버스터미", "book": "https://www.lottecinema.co.kr/NLCHS/Cinema/Detail?cinemaID=9128"}, {"chain": "lotte", "tid": "1|0003|4002", "name": "대전(백화점)", "name_en": "Daejeon", "area": "", "lat": 36.3408418, "lon": 127.3892867, "addr": "롯데백화점 대전", "book": "https://www.lottecinema.co.kr/NLCHS/Cinema/Detail?cinemaID=4002"}, {"chain": "lotte", "tid": "1|0003|4009", "name": "대전관저", "name_en": "Daejeon Gwanjeo", "area": "", "lat": 36.302403, "lon": 127.333758, "addr": "봉우로8번길 23 (관저동)", "book": "https://www.lottecinema.co.kr/NLCHS/Cinema/Detail?cinemaID=4009"}, {"chain": "lotte", "tid": "1|0003|4008", "name": "대전센트럴", "name_en": "Daejeon Central", "area": "", "lat": 36.351904, "lon": 127.379492, "addr": "서구 대덕대로 216 (둔산동)", "book": "https://www.lottecinema.co.kr/NLCHS/Cinema/Detail?cinemaID=4008"}, {"chain": "lotte", "tid": "1|0003|9044", "name": "서산", "name_en": "Seosan", "area": "", "lat": 36.77885508661173, "lon": 126.46566737374354, "addr": "서산시 율지18로 38", "book": "https://www.lottecinema.co.kr/NLCHS/Cinema/Detail?cinemaID=9044"}, {"chain": "lotte", "tid": "1|0003|4004", "name": "서청주(아울렛)", "name_en": "Seocheongju", "area": "", "lat": 36.6449815, "lon": 127.4211508, "addr": "롯데아울렛 청주", "book": "https://www.lottecinema.co.kr/NLCHS/Cinema/Detail?cinemaID=4004"}, {"chain": "lotte", "tid": "1|0003|9119", "name": "오송", "name_en": "Osong", "area": "", "lat": 36.6187575441384, "lon": 127.316562902244, "addr": "", "book": "https://www.lottecinema.co.kr/NLCHS/Cinema/Detail?cinemaID=9119"}, {"chain": "lotte", "tid": "1|0003|9101", "name": "천안불당", "name_en": "buldang", "area": "", "lat": 36.8131471, "lon": 127.108469, "addr": "", "book": "https://www.lottecinema.co.kr/NLCHS/Cinema/Detail?cinemaID=9101"}, {"chain": "lotte", "tid": "1|0003|9125", "name": "천안청당", "name_en": "Cheongdang", "area": "", "lat": 36.7829503, "lon": 127.1560963, "addr": "", "book": "https://www.lottecinema.co.kr/NLCHS/Cinema/Detail?cinemaID=9125"}, {"chain": "lotte", "tid": "1|0003|4007", "name": "청주용암", "name_en": "Cheongju Yongam", "area": "", "lat": 36.6069879, "lon": 127.5030979, "addr": "상당구 1순환로 1233 (용암동)", "book": "https://www.lottecinema.co.kr/NLCHS/Cinema/Detail?cinemaID=4007"}, {"chain": "lotte", "tid": "1|0003|9078", "name": "충주(모다아울렛)", "name_en": "Chungju", "area": "", "lat": 36.961116, "lon": 127.898704, "addr": "", "book": "https://www.lottecinema.co.kr/NLCHS/Cinema/Detail?cinemaID=9078"}, {"chain": "lotte", "tid": "1|0004|6001", "name": "광주(백화점)", "name_en": "Gwangju", "area": "", "lat": 35.1548181986979, "lon": 126.912056734844, "addr": "롯데백화점 광주", "book": "https://www.lottecinema.co.kr/NLCHS/Cinema/Detail?cinemaID=6001"}, {"chain": "lotte", "tid": "1|0004|9065", "name": "광주광산", "name_en": "gwangsan", "area": "", "lat": 35.159896, "lon": 126.809604, "addr": "", "book": "https://www.lottecinema.co.kr/NLCHS/Cinema/Detail?cinemaID=9065"}, {"chain": "lotte", "tid": "1|0004|9117", "name": "광주첨단", "name_en": "Gwangju Cheomdan", "area": "", "lat": 35.2212758, "lon": 126.84201, "addr": "광주 광산구 첨단중앙로182번길 8 힐스테이트 첨단 상가 2층, 3층", "book": "https://www.lottecinema.co.kr/NLCHS/Cinema/Detail?cinemaID=9117"}, {"chain": "lotte", "tid": "1|0004|6007", "name": "군산나운", "name_en": "Gunsan Naun", "area": "", "lat": 35.961035, "lon": 126.704793, "addr": "백토로 198 (나운동)", "book": "https://www.lottecinema.co.kr/NLCHS/Cinema/Detail?cinemaID=6007"}, {"chain": "lotte", "tid": "1|0004|6009", "name": "군산몰", "name_en": "Gunsan Mall", "area": "", "lat": 35.976311, "lon": 126.738601, "addr": "롯데몰 군산", "book": "https://www.lottecinema.co.kr/NLCHS/Cinema/Detail?cinemaID=6009"}, {"chain": "lotte", "tid": "1|0004|6004", "name": "수완(아울렛)", "name_en": "Suwan", "area": "", "lat": 35.190031, "lon": 126.81996, "addr": "롯데아울렛 광주수완", "book": "https://www.lottecinema.co.kr/NLCHS/Cinema/Detail?cinemaID=6004"}, {"chain": "lotte", "tid": "1|0004|9070", "name": "익산모현", "name_en": "IKsan Mohyun", "area": "", "lat": 35.949487, "lon": 126.940141, "addr": "", "book": "https://www.lottecinema.co.kr/NLCHS/Cinema/Detail?cinemaID=9070"}, {"chain": "lotte", "tid": "1|0004|6002", "name": "전주(백화점)", "name_en": "Jeonju", "area": "", "lat": 35.83453637933, "lon": 127.121796801292, "addr": "롯데백화점 전주", "book": "https://www.lottecinema.co.kr/NLCHS/Cinema/Detail?cinemaID=6002"}, {"chain": "lotte", "tid": "1|0004|9102", "name": "전주송천", "name_en": "Songcheon", "area": "", "lat": 35.866749, "lon": 127.121143, "addr": "", "book": "https://www.lottecinema.co.kr/NLCHS/Cinema/Detail?cinemaID=9102"}, {"chain": "lotte", "tid": "1|0004|6006", "name": "전주평화", "name_en": "Jeonju Pyeongwha", "area": "", "lat": 35.7963115, "lon": 127.1324218, "addr": "백제대로 10 (평화동 1가)", "book": "https://www.lottecinema.co.kr/NLCHS/Cinema/Detail?cinemaID=6006"}, {"chain": "lotte", "tid": "1|0004|9047", "name": "충장로", "name_en": "Chungjangro", "area": "", "lat": 35.1481151, "lon": 126.9147085, "addr": "", "book": "https://www.lottecinema.co.kr/NLCHS/Cinema/Detail?cinemaID=9047"}, {"chain": "lotte", "tid": "1|0005|9120", "name": "경주황성", "name_en": "hwangseong", "area": "", "lat": 35.880792, "lon": 129.218167, "addr": "", "book": "https://www.lottecinema.co.kr/NLCHS/Cinema/Detail?cinemaID=9120"}, {"chain": "lotte", "tid": "1|0005|5013", "name": "구미공단", "name_en": "Gumi Industrial Complex", "area": "", "lat": 36.1042243129666, "lon": 128.384962573693, "addr": "산호대로 233 (구미 BOX IN)", "book": "https://www.lottecinema.co.kr/NLCHS/Cinema/Detail?cinemaID=5013"}, {"chain": "lotte", "tid": "1|0005|5012", "name": "대구광장", "name_en": "Daegu Plaza", "area": "", "lat": 35.8556269, "lon": 128.5505995, "addr": "서구 달구벌대로 1691 (엠프라자)", "book": "https://www.lottecinema.co.kr/NLCHS/Cinema/Detail?cinemaID=5012"}, {"chain": "lotte", "tid": "1|0005|5006", "name": "대구율하", "name_en": "Daegu Yulha", "area": "", "lat": 35.8684202, "lon": 128.6934091, "addr": "롯데아울렛 대구율하", "book": "https://www.lottecinema.co.kr/NLCHS/Cinema/Detail?cinemaID=5006"}, {"chain": "lotte", "tid": "1|0005|9121", "name": "대구현풍", "name_en": "Daegu Hyeonpung", "area": "", "lat": 35.693235, "lon": 128.456304, "addr": "", "book": "https://www.lottecinema.co.kr/NLCHS/Cinema/Detail?cinemaID=9121"}, {"chain": "lotte", "tid": "1|0005|5005", "name": "동성로", "name_en": "DongSeong-Ro", "area": "", "lat": 35.8696866322943, "lon": 128.59331861031, "addr": "동성로2길 95 (BL타워)", "book": "https://www.lottecinema.co.kr/NLCHS/Cinema/Detail?cinemaID=5005"}, {"chain": "lotte", "tid": "1|0005|5016", "name": "상인", "name_en": "Sangin", "area": "", "lat": 35.8165747, "lon": 128.5392668, "addr": "달서구 월곡로 247 (상인동)", "book": "https://www.lottecinema.co.kr/NLCHS/Cinema/Detail?cinemaID=5016"}, {"chain": "lotte", "tid": "1|0005|9080", "name": "상주", "name_en": "Sangju", "area": "", "lat": 36.415784, "lon": 128.154575, "addr": "", "book": "https://www.lottecinema.co.kr/NLCHS/Cinema/Detail?cinemaID=9080"}, {"chain": "lotte", "tid": "1|0005|9127", "name": "성서", "name_en": "Seongseo", "area": "", "lat": 35.8544439943063, "lon": 128.50782842757, "addr": "", "book": "https://www.lottecinema.co.kr/NLCHS/Cinema/Detail?cinemaID=9127"}, {"chain": "lotte", "tid": "1|0005|9064", "name": "영주", "name_en": "Youngju", "area": "", "lat": 36.827272, "lon": 128.61787, "addr": "", "book": "https://www.lottecinema.co.kr/NLCHS/Cinema/Detail?cinemaID=9064"}, {"chain": "lotte", "tid": "1|0005|9098", "name": "영천", "name_en": "yeong cheon", "area": "", "lat": 35.962962, "lon": 128.940668, "addr": "", "book": "https://www.lottecinema.co.kr/NLCHS/Cinema/Detail?cinemaID=9098"}, {"chain": "lotte", "tid": "1|0005|9097", "name": "포항", "name_en": "Pohang", "area": "", "lat": 36.0366336563687, "lon": 129.362946703682, "addr": "", "book": "https://www.lottecinema.co.kr/NLCHS/Cinema/Detail?cinemaID=9097"}, {"chain": "lotte", "tid": "1|0005|9067", "name": "프리미엄구미센트럴", "name_en": "Gumicentral", "area": "", "lat": 36.129019, "lon": 128.334772, "addr": "", "book": "https://www.lottecinema.co.kr/NLCHS/Cinema/Detail?cinemaID=9067"}, {"chain": "lotte", "tid": "1|0005|9074", "name": "프리미엄안동", "name_en": "Andong", "area": "", "lat": 36.566226, "lon": 128.69989, "addr": "", "book": "https://www.lottecinema.co.kr/NLCHS/Cinema/Detail?cinemaID=9074"}, {"chain": "lotte", "tid": "1|0005|9057", "name": "프리미엄칠곡", "name_en": "Chilgok", "area": "", "lat": 35.9422967, "lon": 128.5639207, "addr": "", "book": "https://www.lottecinema.co.kr/NLCHS/Cinema/Detail?cinemaID=9057"}, {"chain": "lotte", "tid": "1|0006|9118", "name": "강릉", "name_en": "Gangneung", "area": "", "lat": 37.752887, "lon": 128.894025, "addr": "", "book": "https://www.lottecinema.co.kr/NLCHS/Cinema/Detail?cinemaID=9118"}, {"chain": "lotte", "tid": "1|0006|9108", "name": "남원주", "name_en": "NAM WON JU", "area": "", "lat": 37.3307556, "lon": 127.9487957, "addr": "강원도 원주시 서원대로 396 5층 롯데시네마 남원주", "book": "https://www.lottecinema.co.kr/NLCHS/Cinema/Detail?cinemaID=9108"}, {"chain": "lotte", "tid": "1|0006|7002", "name": "동해", "name_en": "Donghae", "area": "", "lat": 37.5221546, "lon": 129.1153111, "addr": "한섬로 111-7 (현진빌딩)", "book": "https://www.lottecinema.co.kr/NLCHS/Cinema/Detail?cinemaID=7002"}, {"chain": "lotte", "tid": "1|0006|7003", "name": "원주무실", "name_en": "Wonju Musil", "area": "", "lat": 37.334955, "lon": 127.930187, "addr": "능라동길 51 (씨네시티 타워)", "book": "https://www.lottecinema.co.kr/NLCHS/Cinema/Detail?cinemaID=7003"}, {"chain": "lotte", "tid": "1|0006|9123", "name": "춘천", "name_en": "chuncheon", "area": "", "lat": 37.877888, "lon": 127.727771, "addr": "", "book": "https://www.lottecinema.co.kr/NLCHS/Cinema/Detail?cinemaID=9123"}, {"chain": "lotte", "tid": "1|0007|9013", "name": "서귀포", "name_en": "Seogwipo", "area": "", "lat": 33.24647144841891, "lon": 126.50900601112986, "addr": "", "book": "https://www.lottecinema.co.kr/NLCHS/Cinema/Detail?cinemaID=9013"}, {"chain": "lotte", "tid": "1|0007|6010", "name": "제주연동", "name_en": "Jeju Yeondong", "area": "", "lat": 33.480767, "lon": 126.494834, "addr": "제주특별자치도 제주시 과원로 128 B1F", "book": "https://www.lottecinema.co.kr/NLCHS/Cinema/Detail?cinemaID=6010"}, {"chain": "lotte", "tid": "1|0101|9122", "name": "거창", "name_en": "geochang", "area": "", "lat": 35.68735, "lon": 127.913137, "addr": "", "book": "https://www.lottecinema.co.kr/NLCHS/Cinema/Detail?cinemaID=9122"}, {"chain": "lotte", "tid": "1|0101|2009", "name": "광복", "name_en": "Gwangbok", "area": "", "lat": 35.0978434, "lon": 129.0363215, "addr": "롯데백화점 광복 시네마동 9층", "book": "https://www.lottecinema.co.kr/NLCHS/Cinema/Detail?cinemaID=2009"}, {"chain": "lotte", "tid": "1|0101|5015", "name": "김해부원", "name_en": "Gimhae Buwon", "area": "", "lat": 35.225908, "lon": 128.884162, "addr": "김해대로 2352 (아이스퀘어)", "book": "https://www.lottecinema.co.kr/NLCHS/Cinema/Detail?cinemaID=5015"}, {"chain": "lotte", "tid": "1|0101|5011", "name": "김해아울렛(장유)", "name_en": "Gimhae Outlet", "area": "", "lat": 35.1839705, "lon": 128.8277681, "addr": "롯데프리미엄아울렛 김해", "book": "https://www.lottecinema.co.kr/NLCHS/Cinema/Detail?cinemaID=5011"}, {"chain": "lotte", "tid": "1|0101|2007", "name": "동래", "name_en": "Dongnae", "area": "", "lat": 35.2119499000853, "lon": 129.077510348834, "addr": "롯데마트 동래", "book": "https://www.lottecinema.co.kr/NLCHS/Cinema/Detail?cinemaID=2007"}, {"chain": "lotte", "tid": "1|0101|2010", "name": "동부산아울렛", "name_en": "Dongbusan Outlet", "area": "", "lat": 35.1922037, "lon": 129.2127357, "addr": "롯데프리미엄아울렛 동부산", "book": "https://www.lottecinema.co.kr/NLCHS/Cinema/Detail?cinemaID=2010"}, {"chain": "lotte", "tid": "1|0101|9042", "name": "마산(합성동)", "name_en": "Masan Terminal", "area": "", "lat": 35.238936554890856, "lon": 128.58371136140462, "addr": "", "book": "https://www.lottecinema.co.kr/NLCHS/Cinema/Detail?cinemaID=9042"}, {"chain": "lotte", "tid": "1|0101|9092", "name": "부산명지", "name_en": "myeongji", "area": "", "lat": 35.0918, "lon": 128.909719, "addr": "부산광역시 강서구 명지국제6로 107 (명지동) 2층 (대방디엠시티2차)", "book": "https://www.lottecinema.co.kr/NLCHS/Cinema/Detail?cinemaID=9092"}, {"chain": "lotte", "tid": "1|0101|2004", "name": "부산본점", "name_en": "Busan", "area": "", "lat": 35.1566688004824, "lon": 129.05600227658, "addr": "롯데백화점 부산본점", "book": "https://www.lottecinema.co.kr/NLCHS/Cinema/Detail?cinemaID=2004"}, {"chain": "lotte", "tid": "1|0101|9115", "name": "부산장림", "name_en": "Janglim", "area": "", "lat": 35.080856, "lon": 128.975765, "addr": "부산시 사하구 장림번영로 93", "book": "https://www.lottecinema.co.kr/NLCHS/Cinema/Detail?cinemaID=9115"}, {"chain": "lotte", "tid": "1|0101|9084", "name": "사천", "name_en": "sacheon", "area": "", "lat": 35.080582, "lon": 128.08223, "addr": "", "book": "https://www.lottecinema.co.kr/NLCHS/Cinema/Detail?cinemaID=9084"}, {"chain": "lotte", "tid": "1|0101|2006", "name": "센텀시티", "name_en": "Centumcity", "area": "", "lat": 35.1698548914082, "lon": 129.13109240298, "addr": "롯데백화점 센텀시티", "book": "https://www.lottecinema.co.kr/NLCHS/Cinema/Detail?cinemaID=2006"}, {"chain": "lotte", "tid": "1|0101|9103", "name": "양산물금", "name_en": "mulgeum", "area": "", "lat": 35.31797552456567, "lon": 129.0018791394501, "addr": "양산시 물금읍 백호로 68", "book": "https://www.lottecinema.co.kr/NLCHS/Cinema/Detail?cinemaID=9103"}, {"chain": "lotte", "tid": "1|0101|9105", "name": "엠비씨네(진주)", "name_en": "JIN JU MBC", "area": "", "lat": 35.163764, "lon": 128.107399, "addr": "", "book": "https://www.lottecinema.co.kr/NLCHS/Cinema/Detail?cinemaID=9105"}, {"chain": "lotte", "tid": "1|0101|2011", "name": "오투(부산대)", "name_en": "Busan Univ", "area": "", "lat": 35.2283062, "lon": 129.0898121, "addr": "금정구 중앙대로 1607 (부곡동)", "book": "https://www.lottecinema.co.kr/NLCHS/Cinema/Detail?cinemaID=2011"}, {"chain": "lotte", "tid": "1|0101|5001", "name": "울산(백화점)", "name_en": "Ulsan", "area": "", "lat": 35.5383639752403, "lon": 129.33836853005, "addr": "롯데백화점 울산 영플라자", "book": "https://www.lottecinema.co.kr/NLCHS/Cinema/Detail?cinemaID=5001"}, {"chain": "lotte", "tid": "1|0101|9116", "name": "울산성남", "name_en": "UlsanSungnam", "area": "", "lat": 35.553165, "lon": 129.32051, "addr": "", "book": "https://www.lottecinema.co.kr/NLCHS/Cinema/Detail?cinemaID=9116"}, {"chain": "lotte", "tid": "1|0101|5017", "name": "진주혁신(롯데몰)", "name_en": "Jinju Innovation City", "area": "", "lat": 35.1801, "lon": 128.139667, "addr": "동진로 440 (롯데몰 진주)", "book": "https://www.lottecinema.co.kr/NLCHS/Cinema/Detail?cinemaID=5017"}, {"chain": "lotte", "tid": "1|0101|5009", "name": "진해", "name_en": "Jinhae", "area": "", "lat": 35.1587974, "lon": 128.6974327, "addr": "진해대로 752 (석동)", "book": "https://www.lottecinema.co.kr/NLCHS/Cinema/Detail?cinemaID=5009"}, {"chain": "lotte", "tid": "1|0101|5002", "name": "창원", "name_en": "Changwon", "area": "", "lat": 35.2245608787753, "lon": 128.681816605537, "addr": "롯데백화점 창원", "book": "https://www.lottecinema.co.kr/NLCHS/Cinema/Detail?cinemaID=5002"}, {"chain": "lotte", "tid": "1|0101|9036", "name": "통영", "name_en": "Tongyeong", "area": "", "lat": 34.8591516070785, "lon": 128.430299395001, "addr": "", "book": "https://www.lottecinema.co.kr/NLCHS/Cinema/Detail?cinemaID=9036"}, {"chain": "lotte", "tid": "1|0101|9072", "name": "프리미엄경남대", "name_en": "Kyungnamdae", "area": "", "lat": 35.180783, "lon": 128.559763, "addr": "", "book": "https://www.lottecinema.co.kr/NLCHS/Cinema/Detail?cinemaID=9072"}, {"chain": "lotte", "tid": "1|0101|9059", "name": "프리미엄해운대(장산역)", "name_en": "Haeundae", "area": "", "lat": 35.1691698, "lon": 129.17666, "addr": "부산광역시 해운대구 해운대로 802", "book": "https://www.lottecinema.co.kr/NLCHS/Cinema/Detail?cinemaID=9059"}, {"chain": "megabox", "tid": "1372", "name": "강남", "name_en": "Gangnam", "area": "10", "lat": 37.498214, "lon": 127.0264086, "addr": "서울특별시 서초구 서초대로 77길 3 (서초동) 아라타워 8층", "book": "https://www.megabox.co.kr/booking/timetable?brchNo1=1372"}, {"chain": "megabox", "tid": "1341", "name": "강동", "name_en": "Gangdong", "area": "10", "lat": 37.528423, "lon": 127.12535, "addr": "서울특별시 강동구 성내로 48", "book": "https://www.megabox.co.kr/booking/timetable?brchNo1=1341"}, {"chain": "megabox", "tid": "0090", "name": "구의이스트폴", "name_en": "Guui Eastpole Branch", "area": "10", "lat": 37.536792, "lon": 127.087937, "addr": "서울특별시 광진구 아차산로 402", "book": "https://www.megabox.co.kr/booking/timetable?brchNo1=0090"}, {"chain": "megabox", "tid": "1431", "name": "군자", "name_en": "Gunja", "area": "10", "lat": 37.55576, "lon": 127.07838, "addr": "서울특별시 광진구 능동로 289(군자동)", "book": "https://www.megabox.co.kr/booking/timetable?brchNo1=1431"}, {"chain": "megabox", "tid": "0041", "name": "더부티크목동현대백화점", "name_en": "The Boutique Mokdong-Hyundai Department store", "area": "10", "lat": 37.526433, "lon": 126.875034, "addr": "서울특별시 양천구 목동동로 257, (목동) 현대백화점유플렉스 목동점 지하2층", "book": "https://www.megabox.co.kr/booking/timetable?brchNo1=0041"}, {"chain": "megabox", "tid": "0073", "name": "동대문", "name_en": "Dongdaemun", "area": "10", "lat": 37.5666978, "lon": 127.0072101, "addr": "서울특별시 중구 장충단로 247, (을지로6가) 굿모닝시티 9층", "book": "https://www.megabox.co.kr/booking/timetable?brchNo1=0073"}, {"chain": "megabox", "tid": "1572", "name": "마곡", "name_en": "Magok", "area": "10", "lat": 37.559735, "lon": 126.835059, "addr": "서울특별시 강서구 공항대로 247, (마곡동) 퀸즈파크나인 B동 4층", "book": "https://www.megabox.co.kr/booking/timetable?brchNo1=1572"}, {"chain": "megabox", "tid": "1581", "name": "목동", "name_en": "Mokdong", "area": "10", "lat": 37.5293316, "lon": 126.8760748, "addr": "서울특별시 양천구 목동동로 309, (목동) 행복한백화점 6층", "book": "https://www.megabox.co.kr/booking/timetable?brchNo1=1581"}, {"chain": "megabox", "tid": "1311", "name": "상봉", "name_en": "Sangbong", "area": "10", "lat": 37.5930771, "lon": 127.0747734, "addr": "서울특별시 중랑구 망우로 30길 3, (상봉동) 안산빌딩 4층", "book": "https://www.megabox.co.kr/booking/timetable?brchNo1=1311"}, {"chain": "megabox", "tid": "1211", "name": "상암월드컵경기장", "name_en": "Sangam-WorldCup Stadium", "area": "10", "lat": 37.56896, "lon": 126.897575, "addr": "서울특별시 마포구 월드컵로 240, (성산동) 월드컵주경기장 1층", "book": "https://www.megabox.co.kr/booking/timetable?brchNo1=1211"}, {"chain": "megabox", "tid": "1371", "name": "센트럴", "name_en": "Central", "area": "10", "lat": 37.5049511, "lon": 127.0038634, "addr": "서울특별시 서초구 신반포로 176, (반포동) 센트럴시티 빌딩 지하1층", "book": "https://www.megabox.co.kr/booking/timetable?brchNo1=1371"}, {"chain": "megabox", "tid": "1381", "name": "송파파크하비오", "name_en": "Songpa Park Habio", "area": "10", "lat": 37.481735, "lon": 127.12394, "addr": "서울특별시 송파구 송파대로 111,(문정동,파크하비오푸르지오) 204동 지하1층 메가박스", "book": "https://www.megabox.co.kr/booking/timetable?brchNo1=1381"}, {"chain": "megabox", "tid": "1202", "name": "신촌", "name_en": "Sinchon", "area": "10", "lat": 37.559594, "lon": 126.9421125, "addr": "서울특별시 서대문구 신촌역로 30, (신촌동) 신촌민자역사 5층", "book": "https://www.megabox.co.kr/booking/timetable?brchNo1=1202"}, {"chain": "megabox", "tid": "1561", "name": "이수", "name_en": "Isu", "area": "10", "lat": 37.484608, "lon": 126.981638, "addr": "서울특별시 동작구 동작대로 89, (사당동) 골든시네마타워 7층", "book": "https://www.megabox.co.kr/booking/timetable?brchNo1=1561"}, {"chain": "megabox", "tid": "1351", "name": "코엑스", "name_en": "COEX", "area": "10", "lat": 37.512793, "lon": 127.059114, "addr": "서울특별시 강남구 봉은사로524, (삼성동) 코엑스몰 지하2층", "book": "https://www.megabox.co.kr/booking/timetable?brchNo1=1351"}, {"chain": "megabox", "tid": "1212", "name": "홍대(아니메)", "name_en": "Hongdae", "area": "10", "lat": 37.55602, "lon": 126.92199, "addr": "서울특별시 마포구 양화로 147, (동교동) 아일렉스 7층", "book": "https://www.megabox.co.kr/booking/timetable?brchNo1=1212"}, {"chain": "megabox", "tid": "0083", "name": "화곡", "name_en": "Hwagok", "area": "10", "lat": 37.541147, "lon": 126.8376278, "addr": "서울특별시 강서구 화곡로 142, (화곡동) 메가스퀘어 4층", "book": "https://www.megabox.co.kr/booking/timetable?brchNo1=0083"}, {"chain": "megabox", "tid": "4121", "name": "고양스타필드", "name_en": "Goyang-Starfield", "area": "30", "lat": 37.64612, "lon": 126.892068, "addr": "경기도 고양시 덕양구 고양대로 1955 (동산동) 스타필드고양 4층", "book": "https://www.megabox.co.kr/booking/timetable?brchNo1=4121"}, {"chain": "megabox", "tid": "0029", "name": "광명AK플라자", "name_en": "Gwangmyeong-AKplaza", "area": "30", "lat": 37.41908839947184, "lon": 126.88290948465311, "addr": "경기도 광명시 양지로 17, (일직동) AK플라자 광명점 지하1층", "book": "https://www.megabox.co.kr/booking/timetable?brchNo1=0029"}, {"chain": "megabox", "tid": "0053", "name": "광명소하", "name_en": "Gwangmyeong-Soha", "area": "30", "lat": 37.445922, "lon": 126.894085, "addr": "경기도 광명시 소하로 190, (소하동) G-타워 지하1층", "book": "https://www.megabox.co.kr/booking/timetable?brchNo1=0053"}, {"chain": "megabox", "tid": "0035", "name": "금정AK플라자", "name_en": "Geumjeong-AKplaza", "area": "30", "lat": 37.372238, "lon": 126.944843, "addr": "경기도 군포시 엘에스로143, (금정동) AK플라자금정 1층", "book": "https://www.megabox.co.kr/booking/timetable?brchNo1=0035"}, {"chain": "megabox", "tid": "4152", "name": "김포한강신도시", "name_en": "Gimpo Han River New City", "area": "30", "lat": 37.64493, "lon": 126.62446, "addr": "경기도 김포시 김포한강9로 75번길 180, (구래동) 두원타워 8층", "book": "https://www.megabox.co.kr/booking/timetable?brchNo1=4152"}, {"chain": "megabox", "tid": "0019", "name": "남양주현대아울렛스페이스원", "name_en": "Namyangju-Hyundai Outlet Space1 Branch", "area": "30", "lat": 37.614975, "lon": 127.153761, "addr": "경기도 남양주시 다산순환로 50, (다산동) 현대프리미엄아울렛 스페이스원 3층", "book": "https://www.megabox.co.kr/booking/timetable?brchNo1=0019"}, {"chain": "megabox", "tid": "4451", "name": "동탄", "name_en": "Dongtan", "area": "30", "lat": 37.2045187, "lon": 127.0727835, "addr": "경기도 화성시 동탄구 반송동 동탄지성로 11 7층 동탄SR GOLD PLAZA", "book": "https://www.megabox.co.kr/booking/timetable?brchNo1=4451"}, {"chain": "megabox", "tid": "0089", "name": "동탄역", "name_en": "MEGABOX Dongtan Station", "area": "30", "lat": 37.1990162, "lon": 127.0911189, "addr": "경기도 화성시 동탄구 동탄오산로 29 B1 ~ B2", "book": "https://www.megabox.co.kr/booking/timetable?brchNo1=0089"}, {"chain": "megabox", "tid": "0084", "name": "미사강변(하남종합운동장)", "name_en": "Misa Riverside", "area": "30", "lat": 37.56667, "lon": 127.189674, "addr": "경기도 하남시 미사강변 중앙로 218", "book": "https://www.megabox.co.kr/booking/timetable?brchNo1=0084"}, {"chain": "megabox", "tid": "4104", "name": "백석벨라시타", "name_en": "Baekseok Bellacitta", "area": "30", "lat": 37.6429783, "lon": 126.7931591, "addr": "경기도 고양시 일산동구 강송로33, (백석동) 벨라시타 2층", "book": "https://www.megabox.co.kr/booking/timetable?brchNo1=4104"}, {"chain": "megabox", "tid": "4722", "name": "별내", "name_en": "Byeolnae", "area": "30", "lat": 37.65582, "lon": 127.12661, "addr": "경기도 남양주시 별내동 두물로 19", "book": "https://www.megabox.co.kr/booking/timetable?brchNo1=4722"}, {"chain": "megabox", "tid": "4221", "name": "부천스타필드시티", "name_en": "Bucheon Starfield City", "area": "30", "lat": 37.461452, "lon": 126.8133, "addr": "경기도 부천시 옥길로 1, (옥길동) 스타필드시티 부천점 4층", "book": "https://www.megabox.co.kr/booking/timetable?brchNo1=4221"}, {"chain": "megabox", "tid": "4631", "name": "분당", "name_en": "Bundang", "area": "30", "lat": 37.3855259, "lon": 127.122309, "addr": "경기도 성남시 분당구 황새울로 332, (서현동) 분당문화센터 1층", "book": "https://www.megabox.co.kr/booking/timetable?brchNo1=4631"}, {"chain": "megabox", "tid": "0086", "name": "성남모란", "name_en": "MEGABOX SEOUNGNAM MORAN", "area": "30", "lat": 37.4312776, "lon": 127.1297679, "addr": "경기도 성남시 중원구 성남동 성남대로 1136 니즈몰 9층", "book": "https://www.megabox.co.kr/booking/timetable?brchNo1=0086"}, {"chain": "megabox", "tid": "0051", "name": "수원", "name_en": "Suwon", "area": "30", "lat": 37.2504291, "lon": 127.0208443, "addr": "경기도 수원시 권선구 권선동 경수대로 270 수원버스터미널 4층 메가박스 수원지점", "book": "https://www.megabox.co.kr/booking/timetable?brchNo1=0051"}, {"chain": "megabox", "tid": "0052", "name": "수원AK플라자(수원역)", "name_en": "Suwon-AKplaza", "area": "30", "lat": 37.2665965, "lon": 127.000005, "addr": "경기도 수원시 팔달구 매산로1가 덕영대로 924 AK플라자, 6층", "book": "https://www.megabox.co.kr/booking/timetable?brchNo1=0052"}, {"chain": "megabox", "tid": "0042", "name": "수원남문", "name_en": "Suwon Nammun", "area": "30", "lat": 37.2762548, "lon": 127.0158983, "addr": "경기도 수원시 팔달구 팔달로3가 행궁로 71", "book": "https://www.megabox.co.kr/booking/timetable?brchNo1=0042"}, {"chain": "megabox", "tid": "0062", "name": "수원스타필드", "name_en": "Suwon Starfield", "area": "30", "lat": 37.287319, "lon": 126.991493, "addr": "경기도 수원시 장안구 정자동 111-14", "book": "https://www.megabox.co.kr/booking/timetable?brchNo1=0062"}, {"chain": "megabox", "tid": "0060", "name": "수원인계", "name_en": "Suwon Ingye", "area": "30", "lat": 37.260988, "lon": 127.032109, "addr": "경기도 수원시 팔달구 효원로 278, 파비오더씨타 4층(인계동)", "book": "https://www.megabox.co.kr/booking/timetable?brchNo1=0060"}, {"chain": "megabox", "tid": "4291", "name": "시흥배곧", "name_en": "Siheung Baegod", "area": "30", "lat": 37.3696787, "lon": 126.7305083, "addr": "경기도 시흥시 정왕동 배곧3로 96 M플러스 7층", "book": "https://www.megabox.co.kr/booking/timetable?brchNo1=4291"}, {"chain": "megabox", "tid": "0088", "name": "시흥정왕", "name_en": "megabox siheung jeongwang", "area": "30", "lat": 37.345879, "lon": 126.7368994, "addr": "경기도 시흥시 정왕동 정왕대로 210 성담 스퀘어 10층", "book": "https://www.megabox.co.kr/booking/timetable?brchNo1=0088"}, {"chain": "megabox", "tid": "4253", "name": "안산중앙", "name_en": "Ansan Jungang", "area": "30", "lat": 37.3179575, "lon": 126.8356312, "addr": "경기도 안산시 단원구 고잔동 고잔2길 41 신양복합빌딩", "book": "https://www.megabox.co.kr/booking/timetable?brchNo1=4253"}, {"chain": "megabox", "tid": "0020", "name": "안성스타필드", "name_en": "Megabox Starfield Anseong Branch", "area": "30", "lat": 36.994053, "lon": 127.146071, "addr": "경기도 안성시 공도읍 서동대로 3930-39, (진사리) 스타필드 안성 3층", "book": "https://www.megabox.co.kr/booking/timetable?brchNo1=0020"}, {"chain": "megabox", "tid": "4462", "name": "용인테크노밸리", "name_en": "Yongin Technoveli", "area": "30", "lat": 37.291367, "lon": 127.148008, "addr": "경기도 용인시 기흥구 구성로 357 (청덕동) 용인테크노밸리 A동 지하1층", "book": "https://www.megabox.co.kr/booking/timetable?brchNo1=4462"}, {"chain": "megabox", "tid": "0070", "name": "의정부민락", "name_en": "Uijeongbuminlag", "area": "30", "lat": 37.7457794, "lon": 127.0959015, "addr": "경기도 의정부시 오목로205번길 55, (민락동) 메가타워 5층", "book": "https://www.megabox.co.kr/booking/timetable?brchNo1=0070"}, {"chain": "megabox", "tid": "4112", "name": "킨텍스", "name_en": "KINTEX", "area": "30", "lat": 37.6679729, "lon": 126.7514191, "addr": "경기도 고양시 일산서구 호수로 817, (대화동) 레이킨스몰 3층", "book": "https://www.megabox.co.kr/booking/timetable?brchNo1=4112"}, {"chain": "megabox", "tid": "4132", "name": "파주금촌", "name_en": "Paju Geumchon", "area": "30", "lat": 37.7648807, "lon": 126.7747232, "addr": "경기도 파주시 금촌동 중앙로 328", "book": "https://www.megabox.co.kr/booking/timetable?brchNo1=4132"}, {"chain": "megabox", "tid": "4115", "name": "파주운정", "name_en": "Paju Unjeong", "area": "30", "lat": 37.705772, "lon": 126.75874, "addr": "경기도 파주시 경의로 989 에스비프라자 3층 메가박스 파주운정점", "book": "https://www.megabox.co.kr/booking/timetable?brchNo1=4115"}, {"chain": "megabox", "tid": "0039", "name": "평내호평역(구.남양주)", "name_en": "Namyangju", "area": "30", "lat": 37.6550562, "lon": 127.2440352, "addr": "경기도 남양주시 호평동 늘을2로 26 메인시네마타워", "book": "https://www.megabox.co.kr/booking/timetable?brchNo1=0039"}, {"chain": "megabox", "tid": "0064", "name": "평택비전", "name_en": "PyeongtaekVision", "area": "30", "lat": 36.9956096, "lon": 127.1124638, "addr": "경기도 평택시 비전동 경기대로 279 뉴코아 아울렛 백화점 10층", "book": "https://www.megabox.co.kr/booking/timetable?brchNo1=0064"}, {"chain": "megabox", "tid": "4651", "name": "하남스타필드", "name_en": "Hanam Starfield", "area": "30", "lat": 37.5454365, "lon": 127.2237404, "addr": "경기도 하남시 미사대로 750, (신장동) 스타필드 하남 4층", "book": "https://www.megabox.co.kr/booking/timetable?brchNo1=4651"}, {"chain": "megabox", "tid": "4041", "name": "검단", "name_en": "Geomdan", "area": "35", "lat": 37.588171, "lon": 126.6752563, "addr": "인천광역시 서구 서곶로 788 (당하동) 홀리랜드 4층 메가박스 검단", "book": "https://www.megabox.co.kr/booking/timetable?brchNo1=4041"}, {"chain": "megabox", "tid": "4062", "name": "송도(트리플스트리트)", "name_en": "Songdo", "area": "35", "lat": 37.378712, "lon": 126.662811, "addr": "인천광역시 연수구 송도과학로 16번길 33-4, (송도동) 트리플 스트리트 D동 2층", "book": "https://www.megabox.co.kr/booking/timetable?brchNo1=4062"}, {"chain": "megabox", "tid": "0080", "name": "영종하늘도시", "name_en": "Yeongjong Haneul", "area": "35", "lat": 37.4897413, "lon": 126.5614059, "addr": "인천광역시 중구 하늘중앙로 195번길 15, 세영프라자 3층", "book": "https://www.megabox.co.kr/booking/timetable?brchNo1=0080"}, {"chain": "megabox", "tid": "4051", "name": "인천논현", "name_en": "Incheon Nonhyeon", "area": "35", "lat": 37.3974517, "lon": 126.7273571, "addr": "인천광역시 남동구 논현동 논고개로 61 라피에스타", "book": "https://www.megabox.co.kr/booking/timetable?brchNo1=4051"}, {"chain": "megabox", "tid": "0085", "name": "인천학익(시티오씨엘)", "name_en": "Incheon Hagik", "area": "35", "lat": 37.442286, "lon": 126.649139, "addr": "인천광역시 미추홀구 학익로80번길 11, 시티오씨엘 3단지 지하 1층", "book": "https://www.megabox.co.kr/booking/timetable?brchNo1=0085"}, {"chain": "megabox", "tid": "3141", "name": "공주", "name_en": "Gongju", "area": "45", "lat": 36.4735222, "lon": 127.1387479, "addr": "충청남도 공주시 신관동 흑수골길 12", "book": "https://www.megabox.co.kr/booking/timetable?brchNo1=3141"}, {"chain": "megabox", "tid": "0018", "name": "논산", "name_en": "nonsan", "area": "45", "lat": 36.189786, "lon": 127.099217, "addr": "충청남도 논산시 중앙로 255, 3,4층(내동, 우리메가박스타운)", "book": "https://www.megabox.co.kr/booking/timetable?brchNo1=0018"}, {"chain": "megabox", "tid": "0028", "name": "대전신세계아트앤사이언스", "name_en": "Daejeon-Shinsegae Art & Science Branch", "area": "45", "lat": 36.375407628143066, "lon": 127.38116689513329, "addr": "대전광역시 유성구 엑스포로1, (도룡동) 대전신세계아트앤사이언스 6층", "book": "https://www.megabox.co.kr/booking/timetable?brchNo1=0028"}, {"chain": "megabox", "tid": "0009", "name": "대전유성", "name_en": "Daejeon-Yuseong", "area": "45", "lat": 36.35211, "lon": 127.344524, "addr": "대전광역시 유성구 계룡로132번길 10, (봉명동) 센트럴프라자 5층", "book": "https://www.megabox.co.kr/booking/timetable?brchNo1=0009"}, {"chain": "megabox", "tid": "3011", "name": "대전중앙로", "name_en": "Daejeon Jungang-ro", "area": "45", "lat": 36.327744, "lon": 127.424113, "addr": "대전광역시 중구 중앙로 126, (대흥동) 4층", "book": "https://www.megabox.co.kr/booking/timetable?brchNo1=3011"}, {"chain": "megabox", "tid": "0017", "name": "대전현대프리미엄아울렛", "name_en": "Daejeon-Hyundai Premium Outlet", "area": "45", "lat": 36.423481, "lon": 127.3970435, "addr": "대전광역시 유성구 테크노중앙로 123, (용산동) 현대프리미엄아울렛 대전점 3층", "book": "https://www.megabox.co.kr/booking/timetable?brchNo1=0017"}, {"chain": "megabox", "tid": "3391", "name": "세종(조치원)", "name_en": "Sejong", "area": "45", "lat": 36.6030542, "lon": 127.2981104, "addr": "세종특별자치시  조치원읍 새내로 122 메가박스", "book": "https://www.megabox.co.kr/booking/timetable?brchNo1=3391"}, {"chain": "megabox", "tid": "3392", "name": "세종나성", "name_en": "Sejong-Naseong", "area": "45", "lat": 36.48403, "lon": 127.26437, "addr": "세종특별자치시 나성로 38, (나성동) 세종 가로수길 건물 5층 A동", "book": "https://www.megabox.co.kr/booking/timetable?brchNo1=3392"}, {"chain": "megabox", "tid": "3631", "name": "오창", "name_en": "Ochang", "area": "45", "lat": 36.712517, "lon": 127.42846, "addr": "충북 청주시 청원구 오창읍 중심상업1로 8-9, 3층", "book": "https://www.megabox.co.kr/booking/timetable?brchNo1=3631"}, {"chain": "megabox", "tid": "3651", "name": "진천", "name_en": "Jincheon", "area": "45", "lat": 36.859937, "lon": 127.4395024, "addr": "충청북도 진천군 진천읍 중앙북1길 3 진천터미널", "book": "https://www.megabox.co.kr/booking/timetable?brchNo1=3651"}, {"chain": "megabox", "tid": "0056", "name": "천안", "name_en": "Cheonan", "area": "45", "lat": 36.8324776, "lon": 127.1477377, "addr": "충청남도 천안시 서북구 두정동 1공단1길 52, (두정동) 센트하임프라자 3층", "book": "https://www.megabox.co.kr/booking/timetable?brchNo1=0056"}, {"chain": "megabox", "tid": "0049", "name": "청주사창", "name_en": "Cheongju Sachang", "area": "45", "lat": 36.6325729, "lon": 127.4604312, "addr": "충청북도 청주시 서원구 사창동 1순환로 682", "book": "https://www.megabox.co.kr/booking/timetable?brchNo1=0049"}, {"chain": "megabox", "tid": "0069", "name": "청주성안길", "name_en": "Cheongju Sungan-gil", "area": "45", "lat": 36.6352405, "lon": 127.488085, "addr": "충청북도 청주시 상당구 상당로81번길 33, 쥬네쓰 쇼핑몰 3층", "book": "https://www.megabox.co.kr/booking/timetable?brchNo1=0069"}, {"chain": "megabox", "tid": "0094", "name": "청주터미널", "name_en": "CheongJuterminal", "area": "45", "lat": 36.626944, "lon": 127.430827, "addr": "충청북도 청주시 흥덕구 2순환로 1225", "book": "https://www.megabox.co.kr/booking/timetable?brchNo1=0094"}, {"chain": "megabox", "tid": "0068", "name": "충주연수", "name_en": "Chungju Yeonsu", "area": "45", "lat": 36.9874925, "lon": 127.9411385, "addr": "충청북도 충주시 번영대로 211, 3층(아토몰)", "book": "https://www.megabox.co.kr/booking/timetable?brchNo1=0068"}, {"chain": "megabox", "tid": "3501", "name": "홍성내포", "name_en": "Hongseong Naepo", "area": "45", "lat": 36.65938, "lon": 126.67896, "addr": "충청남도 홍성군 홍북읍 청사로 174번길 2, 6층 메가박스 홍성내포점", "book": "https://www.megabox.co.kr/booking/timetable?brchNo1=3501"}, {"chain": "megabox", "tid": "0040", "name": "경북도청", "name_en": "Gyeongbuk Provincial Office", "area": "55", "lat": 36.575165, "lon": 128.49207, "addr": "경상북도 예천군 호명면 새움3로 70 3층", "book": "https://www.megabox.co.kr/booking/timetable?brchNo1=0040"}, {"chain": "megabox", "tid": "7122", "name": "경산하양", "name_en": "Gyeongsan Hayang", "area": "55", "lat": 35.9136298, "lon": 128.8056625, "addr": "경상북도 경산시 하양읍 대경로 765", "book": "https://www.megabox.co.kr/booking/timetable?brchNo1=7122"}, {"chain": "megabox", "tid": "7303", "name": "구미강동", "name_en": "Gumi Gangdong", "area": "55", "lat": 36.106814, "lon": 128.417816, "addr": "경상북도 구미시 인동가산로 14, (진평동) 시네마월드 7층", "book": "https://www.megabox.co.kr/booking/timetable?brchNo1=7303"}, {"chain": "megabox", "tid": "0074", "name": "남포항", "name_en": "NamPohang", "area": "55", "lat": 35.974362, "lon": 129.403478, "addr": "경상북도 포항시 남구 오천읍 하원로47번길9, (원리) 1층", "book": "https://www.megabox.co.kr/booking/timetable?brchNo1=0074"}, {"chain": "megabox", "tid": "0067", "name": "대구세븐밸리(칠곡)", "name_en": "Daegu-7Valley", "area": "55", "lat": 35.944078, "lon": 128.560337, "addr": "대구광역시 북구 동천동 동암로 90 세븐밸리 5층", "book": "https://www.megabox.co.kr/booking/timetable?brchNo1=0067"}, {"chain": "megabox", "tid": "7011", "name": "대구신세계(동대구)", "name_en": "Daegu-Shinsegae(Dongdaegu)", "area": "55", "lat": 35.877686, "lon": 128.6294, "addr": "대구광역시 동구 동부로 149, (신천동) 신세계백화점 8층", "book": "https://www.megabox.co.kr/booking/timetable?brchNo1=7011"}, {"chain": "megabox", "tid": "0022", "name": "대구이시아", "name_en": "Daegu-Esia", "area": "55", "lat": 35.920749, "lon": 128.635719, "addr": "대구광역시 동구 봉무동 팔공로49길 51, (봉무동) 메가맥스타워 2층", "book": "https://www.megabox.co.kr/booking/timetable?brchNo1=0022"}, {"chain": "megabox", "tid": "0072", "name": "대구프리미엄만경관", "name_en": "Premium Mankyoung", "area": "55", "lat": 35.8709578, "lon": 128.5903665, "addr": "대구광역시 중구 국채보상로 547 (종로1가)", "book": "https://www.megabox.co.kr/booking/timetable?brchNo1=0072"}, {"chain": "megabox", "tid": "6161", "name": "덕천", "name_en": "Deokcheon", "area": "55", "lat": 35.2111252, "lon": 129.0075884, "addr": "부산광역시 북구 덕천동 만덕대로 23 폴라렉스", "book": "https://www.megabox.co.kr/booking/timetable?brchNo1=6161"}, {"chain": "megabox", "tid": "0076", "name": "마산(경남대)", "name_en": "Masan", "area": "55", "lat": 35.181837, "lon": 128.563837, "addr": "경상남도 창원시 마산합포구 해안대로 51 유로스퀘어 6층(구.성지아울렛)", "book": "https://www.megabox.co.kr/booking/timetable?brchNo1=0076"}, {"chain": "megabox", "tid": "6001", "name": "부산극장", "name_en": "Busan Theater", "area": "55", "lat": 35.0986241, "lon": 129.0287749, "addr": "부산광역시 중구 비프광장로 36(남포동5가)", "book": "https://www.megabox.co.kr/booking/timetable?brchNo1=6001"}, {"chain": "megabox", "tid": "0061", "name": "부산대", "name_en": "Busan ​​National University", "area": "55", "lat": 35.2301274, "lon": 129.0880723, "addr": "부산광역시 금정구 장전로 12번길 55, (장전동) 라퓨타 아일랜드 4층", "book": "https://www.megabox.co.kr/booking/timetable?brchNo1=0061"}, {"chain": "megabox", "tid": "0025", "name": "북대구(칠곡)", "name_en": "Northern Daegu (Chilgok)", "area": "55", "lat": 35.9440731, "lon": 128.561734, "addr": "대구광역시 북구 동암로 100", "book": "https://www.megabox.co.kr/booking/timetable?brchNo1=0025"}, {"chain": "megabox", "tid": "0082", "name": "서면대한", "name_en": "Seomyeon Daehan", "area": "55", "lat": 35.1542007, "lon": 129.0600191, "addr": "부산광역시 부산진구 중앙대로692번길 16(부전동), 대한프라자 3층", "book": "https://www.megabox.co.kr/booking/timetable?brchNo1=0082"}, {"chain": "megabox", "tid": "0097", "name": "양산", "name_en": "Yangsan", "area": "55", "lat": 35.338265, "lon": 129.0269376, "addr": "경상남도 양산시 중부동 강변로 440 쇼핑몰 바나나빌딩 6층", "book": "https://www.megabox.co.kr/booking/timetable?brchNo1=0097"}, {"chain": "megabox", "tid": "6262", "name": "양산증산", "name_en": "Yangsan Jeungsan", "area": "55", "lat": 35.309618, "lon": 129.009093, "addr": "경상남도 양산시 물금읍 증산역로 177, (가촌리) 라피에스타 6층", "book": "https://www.megabox.co.kr/booking/timetable?brchNo1=6262"}, {"chain": "megabox", "tid": "0045", "name": "진주(중안)", "name_en": "Jinju Jungan", "area": "55", "lat": 35.192814, "lon": 128.082662, "addr": "경상남도 진주시 중안동 진양호로 521, 4층", "book": "https://www.megabox.co.kr/booking/timetable?brchNo1=0045"}, {"chain": "megabox", "tid": "0014", "name": "창원내서", "name_en": "Megabox Changwon Naeseo Branch", "area": "55", "lat": 35.248979, "lon": 128.510642, "addr": "경상남도 창원시 마산회원구 내서읍 광려천서로 81, (내서읍) ISC프라자 10층", "book": "https://www.megabox.co.kr/booking/timetable?brchNo1=0014"}, {"chain": "megabox", "tid": "0038", "name": "포항", "name_en": "Pohang", "area": "55", "lat": 36.012592, "lon": 129.348854, "addr": "경상북도 포항시 남구 중흥로 77, (상도동) 밸류플러스 7층", "book": "https://www.megabox.co.kr/booking/timetable?brchNo1=0038"}, {"chain": "megabox", "tid": "0087", "name": "화명", "name_en": "MEGABOX Hwamyeong", "area": "55", "lat": 35.2347552, "lon": 129.0097647, "addr": "부산광역시 북구 화명동 화명대로 16 센츄리빌딩 7층 (화명동)", "book": "https://www.megabox.co.kr/booking/timetable?brchNo1=0087"}, {"chain": "megabox", "tid": "5021", "name": "광주상무", "name_en": "Gwangju Sangmu", "area": "65", "lat": 35.1542965, "lon": 126.8544207, "addr": "광주광역시 서구 치평동 시청로60번길 21-6, 3층 콜롬버스시네마", "book": "https://www.megabox.co.kr/booking/timetable?brchNo1=5021"}, {"chain": "megabox", "tid": "5061", "name": "광주하남", "name_en": "Gwangju Hanam", "area": "65", "lat": 35.1629179, "lon": 126.8115593, "addr": "광주광역시 광산구 우산동 풍영철길로 15 콜럼버스월드", "book": "https://www.megabox.co.kr/booking/timetable?brchNo1=5061"}, {"chain": "megabox", "tid": "5401", "name": "순천", "name_en": "Suncheon", "area": "65", "lat": 34.9412736, "lon": 127.5109071, "addr": "전라남도 순천시 덕암동 충효로 15 메가박스", "book": "https://www.megabox.co.kr/booking/timetable?brchNo1=5401"}, {"chain": "megabox", "tid": "5552", "name": "여수웅천", "name_en": "Yeosu Woongcheon", "area": "65", "lat": 34.74934, "lon": 127.67887, "addr": "전남 여수시 신월로 96 3층 메가박스 여수웅천점", "book": "https://www.megabox.co.kr/booking/timetable?brchNo1=5552"}, {"chain": "megabox", "tid": "0010", "name": "전대(광주)", "name_en": "Jeondae(Gwangju)", "area": "65", "lat": 35.1726016, "lon": 126.912461, "addr": "광주광역시 북구 중흥동 우치로 60", "book": "https://www.megabox.co.kr/booking/timetable?brchNo1=0010"}, {"chain": "megabox", "tid": "0050", "name": "전주객사", "name_en": "Jeonju Gaeksa", "area": "65", "lat": 35.820929, "lon": 127.14379, "addr": "전북특별자치도 전주시 완산구 전주객사4길 74-12(고사동) 메가박스 전주객사지점", "book": "https://www.megabox.co.kr/booking/timetable?brchNo1=0050"}, {"chain": "megabox", "tid": "0021", "name": "전주혁신", "name_en": "Jeonju Hyeoksin", "area": "65", "lat": 35.839855862862315, "lon": 127.06096536937214, "addr": "전북특별자치도 전주시 덕진구 기지로 77 (장동, 전북혁신도시 디엠시티) 2층", "book": "https://www.megabox.co.kr/booking/timetable?brchNo1=0021"}, {"chain": "megabox", "tid": "5064", "name": "첨단", "name_en": "Cheomdan", "area": "65", "lat": 35.221173, "lon": 126.852519, "addr": "광주광역시 광산구 쌍암동 앰코로 35 폭스존", "book": "https://www.megabox.co.kr/booking/timetable?brchNo1=5064"}, {"chain": "megabox", "tid": "2001", "name": "남춘천", "name_en": "Namchuncheon", "area": "70", "lat": 37.866501, "lon": 127.719996, "addr": "강원특별자치도 춘천시 춘천로17번길 17 (온의동, 뉴타운빌딩 2F)", "book": "https://www.megabox.co.kr/booking/timetable?brchNo1=2001"}, {"chain": "megabox", "tid": "2171", "name": "속초", "name_en": "Sokcho", "area": "70", "lat": 38.1890828, "lon": 128.5858559, "addr": "강원특별자치도 속초시 조양동 조양로142번길 20 메가박스", "book": "https://www.megabox.co.kr/booking/timetable?brchNo1=2171"}, {"chain": "megabox", "tid": "2202", "name": "원주혁신", "name_en": "Wonju Central", "area": "70", "lat": 37.3277942, "lon": 127.9866176, "addr": "강원특별자치도 원주시 양지로 80, (반곡동, 센트럴파크 7층)", "book": "https://www.megabox.co.kr/booking/timetable?brchNo1=2202"}, {"chain": "megabox", "tid": "0037", "name": "춘천석사", "name_en": "Chuncheon seoksa", "area": "70", "lat": 37.8630448, "lon": 127.7479643, "addr": "강원특별자치도 춘천시 후석로 120 (석사동, 춘천NH타운 ENTA) 2층", "book": "https://www.megabox.co.kr/booking/timetable?brchNo1=0037"}, {"chain": "megabox", "tid": "0059", "name": "제주삼화", "name_en": "Jeju-Samwha", "area": "80", "lat": 33.5203646, "lon": 126.5881224, "addr": "제주특별자치도 제주시 삼봉로 11 (삼양이동)", "book": "https://www.megabox.co.kr/booking/timetable?brchNo1=0059"}, {"chain": "megabox", "tid": "0054", "name": "제주서귀포", "name_en": "Jeju-Seoguipo", "area": "80", "lat": 33.2616361, "lon": 126.5627615, "addr": "제주특별자치도 서귀포시 동홍동 1372-1", "book": "https://www.megabox.co.kr/booking/timetable?brchNo1=0054"}, {"chain": "megabox", "tid": "0066", "name": "제주아라", "name_en": "Jeju-Ara", "area": "80", "lat": 33.4839169, "lon": 126.53585, "addr": "제주특별자치도 제주시 아라일동 구산로 4 메가타워", "book": "https://www.megabox.co.kr/booking/timetable?brchNo1=0066"}, {"chain": "megabox", "tid": "7401", "name": "김천", "name_en": "Gimcheon", "area": "55", "lat": 36.1254756, "lon": 128.1106652, "addr": "경상북도 김천시 김천로74 한일빌딩4층", "book": "https://www.megabox.co.kr/booking/timetable?brchNo1=7401"}, {"chain": "megabox", "tid": "0032", "name": "사상", "name_en": "Sasang", "area": "55", "lat": 35.16344301249711, "lon": 128.9837092386718, "addr": "부산광역시 사상구 사상로 201, (괘법동) 서부시외버스터미널 4층", "book": "https://www.megabox.co.kr/booking/timetable?brchNo1=0032"}, {"chain": "megabox", "tid": "6642", "name": "삼천포", "name_en": "Samcheonpo", "area": "55", "lat": 34.949486, "lon": 128.03792, "addr": "경상남도 사천시 해안관광로 109-10(실안동), 아르떼 리조트 본관 4층", "book": "https://www.megabox.co.kr/booking/timetable?brchNo1=6642"}, {"chain": "megabox", "tid": "0057", "name": "울산", "name_en": "Ulsan", "area": "55", "lat": 35.5543894, "lon": 129.3210827, "addr": "울산광역시 중구 성남동 젊음의거리 73, 2층", "book": "https://www.megabox.co.kr/booking/timetable?brchNo1=0057"}, {"chain": "megabox", "tid": "0048", "name": "창원", "name_en": "Changwon", "area": "55", "lat": 35.221376, "lon": 128.6753873, "addr": "경상남도 창원시 성산구 용지로 58, (중앙동) 메가플렉스 8층", "book": "https://www.megabox.co.kr/booking/timetable?brchNo1=0048"}, {"chain": "megabox", "tid": "0079", "name": "해운대(장산)", "name_en": "Haeundae(Jangsan)", "area": "55", "lat": 35.1705551, "lon": 129.177058, "addr": "부산광역시 해운대구 해운대로 813 (좌동, NC백화점 8층) 메가박스 해운대장산지점", "book": "https://www.megabox.co.kr/booking/timetable?brchNo1=0079"}, {"chain": "megabox", "tid": "5302", "name": "목포하당(포르모)", "name_en": "Mokpo Hadang (Formo)", "area": "65", "lat": 34.8047251, "lon": 126.420622, "addr": "전라남도 목포시 옥암로 95 (상동) 포르모큐브몰 3층", "book": "https://www.megabox.co.kr/booking/timetable?brchNo1=5302"}]